[
  { "id": 1, "name": "Puerto Montt", "lat": -41.47, "lng": -72.94, "cards": [5] },
  { "id": 2, "name": "Mexico", "lat": 19.43, "lng": -99.13, "cards": [41] },
  { "id": 3, "name": "Honduras", "lat": 14.15, "lng": -87.14, "cards": [] },
  { "id": 4, "name": "Jamaï<q></q>ue", "lat": 17.98, "lng": -76.8, "cards": [] },
  { "id": 5, "name": "Madère", "lat": 32.75, "lng": -17, "cards": [10, 1, 25] },
  { "id": 6, "name": "Lisbonne", "lat": 38.71, "lng": -9.14, "cards": [1] },
  { "id": 7, "name": "Baleal", "lat": 39.38, "lng": -9.34, "cards": [22, 39] },
  { "id": 8, "name": "Paris", "lat": 48.86, "lng": 2.35, "cards": [35, 2, 14, 40] },
  { "id": 9, "name": "Le Havre", "lat": 49.49, "lng": 0.13, "cards": [3, 14] },
  { "id": 10, "name": "Berlin", "lat": 52.52, "lng": 13.35, "cards": [46] },
  { "id": 11, "name": "New York", "lat": 40.71, "lng": -74.01, "cards": [42, 26, 45] },
  { "id": 12, "name": "Bâton-Rouge", "lat": 30.42, "lng": -91.1, "cards": [] },
  { "id": 13, "name": "Durham", "lat": 36, "lng": -78.94, "cards": [43] },
  { "id": 14, "name": "Santa Fe", "lat": -31.64, "lng": -60.70, "cards": [16] },
  { "id": 15, "name": "Santiago", "lat": -33.44, "lng": -70.65, "cards": [31, 29] },
  { "id": 16, "name": "Valparaíso", "lat": -33.05, "lng": -71.62, "cards": [1, 47, 6, 21, 33] },
  { "id": 17, "name": "Nice", "lat": 43.71, "lng": 7.26, "cards": [] },
  { "id": 18, "name": "Chambord", "lat": 47.61, "lng": 1.52, "cards": [13] },
  { "id": 19, "name": "Hollande", "lat": 51.63, "lng": 4.67, "cards": [4] },
  { "id": 20, "name": "Patagonie", "lat": -41.73, "lng": -68.92, "cards": [4, 37, 34] },
  { "id": 21, "name": "Sicile", "lat": 38.01, "lng": 14.25, "cards": [9, 19] },
  { "id": 22, "name": "Taïwan", "lat": 25.04, "lng": 121.55, "cards": [11] },
  { "id": 23, "name": "Tunis", "lat": 36.8, "lng": 10.18, "cards": [] },
  { "id": 24, "name": "Maroc", "lat": 31.63, "lng": -7.98, "cards": [] },
  { "id": 25, "name": "Grenoble", "lat": 45.19, "lng": 5.72, "cards": [49] },
  { "id": 26, "name": "Angola", "lat": -8.89, "lng": 13.33, "cards": [25] },
  { "id": 27, "name": "Golfe de Botnie", "lat": 64, "lng": 21.86, "cards": [7] },
  { "id": 28, "name": "Suisse", "lat": 46.62, "lng": 6.49, "cards": [48] },
  { "id": 29, "name": "Isla Captiva", "lat": -3.17, "lng": -83.1, "cards": [18] },
  { "id": 30, "name": "Singapour", "lat": 1.27, "lng": 103.84, "cards": [] },
  { "id": 31, "name": "Hollande", "lat": 52.37, "lng": 4.45, "cards": [8] },
  { "id": 32, "name": "Versailles", "lat": 48.74, "lng": 0.98, "cards": [12] },
  { "id": 33, "name": "Vienne", "lat": 48.21, "lng": 16.37, "cards": [] },
  { "id": 34, "name": "Chiloé", "lat": -42.62, "lng": -73.92, "cards": [15, 33] },
  { "id": 35, "name": "Chili central", "lat": -34, "lng": -70.73, "cards": [15, 17] },
  { "id": 36, "name": "Antofagasta", "lat": -23.65, "lng": -70.4, "cards": [20] },
  { "id": 37, "name": "Sintra", "lat": 38.8, "lng": -9.4, "cards": [37] },
  { "id": 38, "name": "Japon", "lat": 35.68, "lng": 139.72, "cards": [23] },
  { "id": 39, "name": "Sénégal", "lat": 14.77, "lng": -17.2, "cards": [24, 30] },
  { "id": 40, "name": "Hambourg", "lat": 53.53, "lng": 9.9, "cards": [47, 26] },
  { "id": 41, "name": "Bogotá", "lat": 4.7, "lng": -74.07, "cards": [27] },
  { "id": 42, "name": "Etretat", "lat": 49.71, "lng": 0.2, "cards": [28] },
  { "id": 43, "name": "Bahía de Guayacán", "lat": -29.96, "lng": -71.36, "cards": [32] },
  { "id": 44, "name": "Parc de Bagatelle", "lat": 48.85, "lng": 1.63, "cards": [36] },
  { "id": 45, "name": "Montsouris", "lat": 46.58, "lng": 2.66, "cards": [38] },
  { "id": 46, "name": "Tanger", "lat": 35.76, "lng": -5.86, "cards": [40] },
  { "id": 47, "name": "Hong Kong", "lat": 22.42, "lng": 114.15, "cards": [] },
  { "id": 48, "name": "Iowa City", "lat": 41.66, "lng": -91.53, "cards": [44] }
] 