[
  { "id": 1, "name": "Puerto Montt", "lat": -41.47, "lng": -72.94 },
  { "id": 2, "name": "Mexico", "lat": 19.43, "lng": -99.13 },
  { "id": 3, "name": "Honduras", "lat": 14.15, "lng": -87.14 },
  { "id": 4, "name": "Jamaïque", "lat": 17.98, "lng": -76.8 },
  { "id": 5, "name": "Madère", "lat": 32.75, "lng": -17 },
  { "id": 6, "name": "Lisbonne", "lat": 38.71, "lng": -9.14 },
  { "id": 7, "name": "Baleal", "lat": 39.38, "lng": -9.34 },
  { "id": 8, "name": "Paris", "lat": 48.86, "lng": 2.35 },
  { "id": 9, "name": "Le Havre", "lat": 49.49, "lng": 0.13 },
  { "id": 10, "name": "Allemagne", "lat": 50.73, "lng": 7.1 },
  { "id": 11, "name": "New York", "lat": 40.71, "lng": -74.01 },
  { "id": 12, "name": "Bâton-Rouge", "lat": 30.42, "lng": -91.1 },
  { "id": 13, "name": "Duke University", "lat": 36, "lng": -78.94 },
  { "id": 14, "name": "Santa Fe, Argentine", "lat": -31.64, "lng": -60.70 },
  { "id": 15, "name": "Santiago", "lat": -33.44, "lng": -70.65 },
  { "id": 16, "name": "Valparaíso", "lat": -33.05, "lng": -71.62 },
  { "id": 17, "name": "Nice", "lat": 43.71, "lng": 7.26 },
  { "id": 18, "name": "Chambord", "lat": 47.61, "lng": 1.52 },
  { "id": 19, "name": "Hollande", "lat": 51.63, "lng": 4.67 },
  { "id": 20, "name": "Patagonie", "lat": -41.73, "lng": -68.92 },
  { "id": 21, "name": "Castel di Tusa", "lat": 38.01, "lng": 14.25 },
  { "id": 22, "name": "Taïwan", "lat": 25.04, "lng": 121.55 },
  { "id": 23, "name": "Tunis", "lat": 36.8, "lng": 10.18 },
  { "id": 24, "name": "Maroc", "lat": 31.63, "lng": -7.98 },
  { "id": 25, "name": "Grenoble", "lat": 45.19, "lng": 5.72 },
  { "id": 26, "name": "Angola", "lat": -8.89, "lng": 13.33 },
  { "id": 27, "name": "Mer du Groenland", "lat": 73.86, "lng": -7.5 },
  { "id": 28, "name": "Suisse", "lat": 46.62, "lng": 6.49 },
  { "id": 29, "name": "La Colonie pénitentiaire", "lat": -1.27, "lng": -81.07 },
  { "id": 30, "name": "Singapour", "lat": 1.27, "lng": 103.84 } 
]